[
    {
        "number": 0,
        "id": "spacewalk",
        "name": "스페이스워크",
        "hashtag":"#스페이스워크 #스페이스워크",
        "postScript": "스페이스워크 후기 ⭐️⭐️⭐️⭐️⭐️",
        "location": "스페이스워크 주소",
        "gallary": ["spacewalk-1", "spacewalk-2", "spacewalk-3"],
        "cover" : "cover-spacewalk",
        "isOpened" : false,
        "isDetailSheetPresented" : false,
        "latitude" : 36.06437,
        "longitude" : 129.38937
    },
    
    {
        "number": 1,
        "id": "tomatilo",
        "name": "토마틸로",
        "hashtag":"#토마틸로 #토마틸로",
        "postScript": "즥인다 ⭐️⭐️⭐️⭐️⭐️",
        "location": "토마틸로 주소",
        "gallary": ["tomatilo-1", "tomatilo-2"],
        "cover" : "cover-tomatilo",
        "isOpened" : false,
        "isDetailSheetPresented" : false,
        "latitude" : 36.0643,
        "longitude" : 129.3875
    },
    
    {
        "number": 2,
        "id": "ohbreman",
        "name": "오브레맨",
        "hashtag":"#오브레맨 #오브레맨",
        "postScript": "오브레맨 후기 ⭐️⭐️⭐️⭐️⭐️",
        "location": "오브레맨 주소",
        "gallary": ["ohbreman-1", "ohbreman-2"],
        "cover" : "cover-ohbreman",
        "isOpened" : false,
        "isDetailSheetPresented" : false,
        "latitude" : 36.0646,
        "longitude" : 129.3843
    },
    
    {
        "number": 3,
        "id": "bridge",
        "name": "영일교",
        "hashtag":"#영일교 #영일교",
        "postScript": "영일교 후기 ⭐️⭐️⭐️⭐️⭐️",
        "location": "영일교 주소",
        "gallary": ["bridge-1", "bridge-2"],
        "cover" : "cover-bridge",
        "isOpened" : false,
        "isDetailSheetPresented" : false,
        "latitude" : 36.06149,
        "longitude" : 129.38306
    },
    
    {
        "number": 4,
        "id": "signpost",
        "name": "글로벌 신화",
        "hashtag":"#글로벌 신화 #글로벌 신화",
        "postScript": "글로벌 신화 후기 ⭐️⭐️⭐️⭐️⭐️",
        "location": "글로벌 신화 주소",
        "gallary": ["signpost-1", "signpost-2"],
        "cover" : "cover-signpost",
        "isOpened" : false,
        "isDetailSheetPresented" : false,
        "latitude" : 36.0615,
        "longitude" : 129.3812
    },
    
    {
        "number": 5,
        "id": "whale",
        "name": "고래 꼬리",
        "hashtag":"#고래 꼬리 #고래 꼬리",
        "postScript": "고래 꼬리 후기 ⭐️⭐️⭐️⭐️⭐️",
        "location": "고래 꼬리 주소",
        "gallary": ["whale-1", "whale-2"],
        "cover" : "cover-whale",
        "isOpened" : false,
        "isDetailSheetPresented" : false,
        "latitude" : 36.0528,
        "longitude" : 129.3783
    }
    
]
